,City,Cloudiness,Country,Date,Humidity,Lat,Lng,Max_Temp,Wind_Speed
0,Ushuaia,75,AR,1554073200,76,-54.81,-68.31,51.8,2.1
1,Aktau,20,KZ,1554076222,100,43.65,51.16,39.13700000000006,6.92
2,Kapaa,40,US,1554076109,54,22.08,-159.32,84.00200000000008,7.2
3,Bluff,0,AU,1554076222,50,-23.58,149.07,70.00700000000002,4.07
4,Norman Wells,90,CA,1554073200,100,65.28,-126.83,33.8,7.7
5,Rikitea,24,PF,1554076160,100,-23.12,-134.97,76.75700000000002,8.27
6,Avarua,12,CK,1554073200,88,-21.21,-159.78,80.6,3.1
7,Wahiawa,20,US,1554076172,61,21.5,-158.02,80.99600000000005,5.1
8,Dikson,88,RU,1554076184,96,73.51,80.55,28.337000000000057,9.97
9,Gandajika,44,CD,1554076224,96,-6.75,23.95,70.27700000000007,2.42
10,Cape Town,40,ZA,1554075967,72,-33.93,18.42,62.00600000000003,3.6
11,High Level,75,CA,1554073200,36,58.52,-117.13,48.2,5.1
12,La Ronge,20,CA,1554073200,47,55.1,-105.3,33.8,5.1
13,Mataura,24,NZ,1554075606,64,-46.19,168.86,55.004000000000055,2.24
14,Puerto Baquerizo Moreno,40,EC,1554073200,70,-0.9,-89.6,86.0,5.1
15,Bredasdorp,0,ZA,1554073200,82,-34.53,20.04,60.8,5.1
16,Nanortalik,20,GL,1554075944,100,60.14,-45.24,26.897000000000038,10.07
17,Presidencia Roque Saenz Pena,24,AR,1554076126,72,-26.79,-60.44,81.25700000000002,3.77
18,Boguchany,64,RU,1554076227,92,58.38,97.46,33.287000000000056,2.97
19,Carnarvon,8,ZA,1554076184,28,-30.97,22.13,56.50700000000002,4.82
20,Bemidji,75,US,1554076191,84,47.48,-94.89,33.008,2.1
21,Butaritari,36,KI,1554076029,100,3.07,172.79,81.52700000000007,5.92
22,Arona,0,IT,1554076204,56,45.76,8.56,57.00200000000008,3.1
23,Savasleyka,48,RU,1554076228,92,55.46,42.32,38.50700000000002,3.57
24,Daru,8,SL,1554076228,77,7.99,-10.85,78.37700000000008,3.87
25,Isangel,40,VU,1554073200,79,-19.55,169.27,84.2,2.1
26,Nyagan,0,RU,1554076229,80,62.14,65.43,25.816999999999997,3.52
27,Georgetown,20,GY,1554073200,74,6.8,-58.16,84.2,4.1
28,Aliwal North,92,ZA,1554076229,73,-30.69,26.71,59.74700000000004,2.87
29,Puerto Ayora,20,EC,1554075942,70,-0.74,-90.35,84.2,7.2
30,Ribeira Grande,68,PT,1554076230,100,38.52,-28.7,59.29700000000004,11.12
31,Mahebourg,75,MU,1554076142,83,-20.41,57.7,77.0,0.5
32,Coahuayana,0,MX,1554076231,18,18.62,-100.35,85.57700000000008,1.02
33,Adwa,0,ET,1554076231,67,14.16,38.9,50.29700000000004,0.82
34,Clyde River,90,CA,1554073200,91,70.47,-68.59,1.3999999999999986,4.1
35,East Foothills,75,US,1554076226,31,37.38,-121.82,78.00800000000001,3.6
36,Yellowknife,90,CA,1554076065,69,62.45,-114.38,35.99600000000005,10.8
37,Pevek,0,RU,1554076186,81,69.7,170.27,8.447000000000035,1.22
38,Alyangula,75,AU,1554073200,66,-13.85,136.42,84.2,4.1
39,Mar del Plata,76,AR,1554076183,39,-46.43,-67.52,67.03700000000006,4.77
40,Leningradskiy,24,RU,1554076233,92,69.38,178.42,7.637000000000057,4.32
41,Saint George,0,GR,1554072600,80,39.45,22.34,41.0,1.52
42,Atuona,32,PF,1554076161,100,-9.8,-139.03,81.79700000000004,4.82
43,Castro,90,CL,1554073200,100,-42.48,-73.76,55.400000000000006,2.6
44,Dunedin,0,NZ,1554076046,46,-45.87,170.5,62.807000000000016,7.27
45,Winnemucca,1,US,1554075949,21,40.97,-117.74,59.0,2.6
46,Punta Arenas,75,CL,1554075747,71,-53.16,-70.91,53.6,6.7
47,Maningrida,92,AU,1554076234,94,-12.05,134.23,79.81700000000001,6.97
48,Tautira,20,PF,1554073200,66,-17.73,-149.15,87.80000000000001,1.5
49,San Quintin,0,PH,1554076235,70,17.54,120.52,77.92700000000008,1.62
50,Lazaro Cardenas,5,MX,1554076213,28,28.39,-105.62,73.00400000000005,8.2
51,Prince Rupert,1,CA,1554073200,62,54.32,-130.32,51.8,3.6
52,Hobart,75,AU,1554076095,54,-42.88,147.33,57.00200000000008,4.1
53,Russell,40,AR,1554073200,57,-33.01,-68.8,78.80000000000001,1.5
54,Ponta do Sol,8,BR,1554076237,74,-20.63,-46.0,67.217,1.67
55,Ewa Beach,1,US,1554076172,57,21.32,-158.01,80.99600000000005,4.6
56,Bethel,1,US,1554072960,46,60.79,-161.76,50.0,4.1
57,Hermanus,88,ZA,1554075921,80,-34.42,19.24,57.992,2.24
58,Skibbereen,40,IE,1554075000,93,51.55,-9.27,42.8,1.5
59,Sahuaripa,0,MX,1554076239,30,29.05,-109.23,76.12700000000008,0.92
60,Mosquera,75,CO,1554073200,59,4.71,-74.23,64.4,3.6
61,Nelson Bay,75,AU,1554075951,67,-32.72,152.14,73.00400000000005,5.1
62,Ondangwa,24,NA,1554073200,64,-17.91,15.98,75.2,3.1
63,Karratha,32,AU,1554076241,52,-20.74,116.85,80.717,3.52
64,Kibala,0,TD,1554073200,54,9.11,18.35,84.2,2.12
65,Albany,75,US,1554076175,60,42.65,-73.75,39.992,9.8
66,Port Elizabeth,1,US,1554075976,39,39.31,-74.98,51.998000000000026,7.7
67,San Patricio,68,PY,1554076243,71,-26.98,-56.83,81.25700000000002,2.07
68,Cherskiy,0,RU,1554076244,71,68.75,161.3,11.327000000000076,1.17
69,Geraldton,75,CA,1554073200,46,49.72,-86.95,30.2,3.1
70,Muros,0,ES,1554076205,71,42.77,-9.06,60.00800000000001,1.0
71,Port Alfred,88,ZA,1554076245,100,-33.59,26.89,67.93700000000007,6.27
72,Honningsvag,64,NO,1554076245,94,70.98,25.97,31.037000000000056,11.52
73,Porterville,1,US,1554076230,26,36.07,-119.02,78.80000000000001,3.1
74,Sao Filipe,0,CV,1554076245,96,14.9,-24.5,70.90700000000001,6.62
75,Jamestown,20,AU,1554076246,80,-33.21,138.6,57.49700000000004,1.92
76,Khrebtovaya,64,RU,1554076246,94,56.71,104.25,30.316999999999997,2.02
77,Kushiro,75,JP,1554073200,56,43.11,144.15,32.0,2.1
78,Aklavik,90,CA,1554073200,80,68.22,-135.01,33.8,6.2
79,Port Macquarie,20,AU,1554076205,55,-31.43,152.91,73.00400000000005,4.6
80,Portland,75,US,1554076146,30,45.52,-122.67,71.00600000000003,2.1
81,Thompson,90,CA,1554073200,46,55.74,-97.86,28.4,4.6
82,Keetmanshoop,0,NA,1554073200,35,-26.57,18.15,69.80000000000001,4.1
83,Pangnirtung,76,CA,1554076248,78,66.15,-65.72,8.447000000000035,3.82
84,Busselton,80,AU,1554076105,49,-33.64,115.35,69.99800000000002,5.37
85,Itoman,75,JP,1554075746,59,26.12,127.67,62.6,9.3
86,Anadyr,90,RU,1554075747,98,64.73,177.51,33.8,9.0
87,Muzhi,64,RU,1554076249,81,65.4,64.7,23.566999999999993,5.47
88,Monroe,90,US,1554076134,88,41.91,-83.4,33.998000000000026,3.1
89,Praia da Vitoria,40,PT,1554076027,76,38.73,-27.07,57.2,12.02
90,Tulu Bolo,44,ET,1554076250,84,8.66,38.21,50.92700000000008,1.22
91,Killam,48,CA,1554076250,74,52.79,-111.86,38.50700000000002,1.17
92,Upernavik,56,GL,1554076199,100,72.79,-56.15,10.516999999999996,1.17
93,Hithadhoo,0,MV,1554076251,100,-0.6,73.08,82.967,2.42
94,Egersund,0,NO,1554076220,80,58.45,6.0,33.998000000000026,4.12
95,Labuhan,8,ID,1554076251,88,-2.54,115.51,77.20700000000002,1.07
96,Bubaque,0,GW,1554076252,83,11.28,-15.83,85.48700000000005,4.12
97,Hervey Bay,20,AU,1554075947,57,-25.3,152.85,80.99600000000005,4.6
98,Tuktoyaktuk,75,CA,1554073200,85,69.44,-133.03,23.0,9.3
99,Avera,1,US,1554076245,50,33.19,-82.53,62.6,5.7
100,La Macarena,36,CO,1554076252,86,2.18,-73.79,76.84700000000004,0.77
101,Salinas,1,US,1554076247,36,36.67,-121.66,78.00800000000001,2.6
102,Lata,0,IN,1554076253,59,30.78,78.62,43.63700000000006,1.22
103,Saskylakh,68,RU,1554076254,86,71.97,114.09,24.19700000000004,6.72
104,Rangapara,100,IN,1554076254,91,26.82,92.69,56.95700000000002,0.87
105,Kuala Terengganu,75,MY,1554073200,100,5.33,103.14,77.0,1.5
106,Barrow,80,AR,1554076254,43,-38.31,-60.23,73.15700000000001,3.67
107,Lashio,0,MM,1554076255,90,22.93,97.75,59.117,0.87
108,Barcelos,0,PT,1554076024,76,41.53,-8.62,60.998000000000026,1.0
109,Lagoa,75,PT,1554076201,87,37.14,-8.45,60.8,2.1
110,Mount Gambier,90,AU,1554073200,71,-37.83,140.78,57.2,2.6
111,East London,20,ZA,1554076137,100,-33.02,27.91,72.52700000000007,2.32
112,Kruisfontein,12,ZA,1554076095,85,-34.0,24.73,60.917,8.12
113,Teguldet,56,RU,1554076256,88,57.31,88.17,33.557000000000016,4.72
114,Rio Grande,8,BR,1554076257,87,-32.03,-52.1,71.35700000000003,4.02
115,Abalak,0,NE,1554076257,25,15.46,6.28,75.40700000000001,4.42
116,New Norfolk,75,AU,1554076156,54,-42.78,147.06,57.992,4.1
117,Margate,75,AU,1554076217,54,-43.03,147.26,57.992,4.1
118,Constitucion,40,MX,1554076217,10,23.99,-104.67,80.6,2.1
119,Lokosovo,80,RU,1554076258,89,61.13,74.84,30.407000000000018,4.77
120,Igrim,0,RU,1554076258,79,63.19,64.42,26.357000000000017,3.42
121,Bambous Virieux,75,MU,1554076142,83,-20.34,57.76,77.0,0.5
122,Chokurdakh,0,RU,1554076228,90,70.62,147.9,17.087000000000057,1.97
123,Miguel Hidalgo,75,MX,1554075741,27,19.41,-99.19,93.2,3.1
124,Mantua,0,IT,1554076248,72,45.16,10.79,55.99400000000007,2.1
125,Thalgau,20,AT,1554076240,80,47.84,13.25,51.00800000000001,1.0
126,Vaini,0,IN,1554076251,90,15.34,74.49,65.32700000000008,0.47
127,Havoysund,40,NO,1554074400,68,71.0,24.66,30.2,23.7
128,Panguna,76,PG,1554076261,86,-6.32,155.48,80.98700000000005,1.87
129,Torbay,90,CA,1554076020,100,47.66,-52.73,42.998000000000026,5.7
130,Ulaangom,8,MN,1554076261,59,49.98,92.07,8.357000000000017,0.97
131,Marsabit,0,KE,1554076262,67,2.34,37.99,72.70700000000002,2.27
132,Kahului,40,US,1554076004,54,20.89,-156.47,84.2,6.7
133,Altay,36,CN,1554076262,60,47.83,88.13,15.377000000000077,0.97
134,Makakilo City,1,US,1554075917,57,21.35,-158.09,80.99600000000005,4.6
135,Nalut,80,LY,1554076263,64,31.86,10.98,59.83700000000006,7.47
136,Iranshahr,0,IR,1554076263,57,27.21,60.69,59.38700000000006,1.32
137,Arraial do Cabo,24,BR,1554076196,95,-22.97,-42.02,75.85700000000003,2.67
138,Kodiak,1,US,1554076139,11,39.95,-94.76,46.004000000000055,3.1
139,Flin Flon,75,CA,1554073200,59,54.77,-101.88,32.0,4.6
140,Provideniya,90,RU,1554073200,86,64.42,-173.23,28.4,3.37
141,Hilo,90,US,1554076162,78,19.71,-155.08,80.99600000000005,3.1
142,Cangucu,100,BR,1554076206,93,-31.39,-52.68,68.65700000000001,1.32
143,Catuday,20,PH,1554076265,99,16.29,119.81,79.27700000000007,3.12
144,Namibe,0,AO,1554076265,100,-15.19,12.15,77.92700000000008,3.12
145,Quesnel,1,CA,1554073200,30,52.98,-122.49,55.400000000000006,3.6
146,Saldanha,0,PT,1554076266,78,41.42,-6.55,47.416999999999994,1.97
147,Raymond Terrace,75,AU,1554076208,67,-32.76,151.75,73.00400000000005,5.1
148,Lebu,32,ET,1554076107,91,8.96,38.73,49.57700000000008,1.77
149,Mabaruma,0,GY,1554076266,80,8.2,-59.78,78.917,4.07
150,Batagay-Alyta,0,RU,1554076267,72,67.8,130.41,10.877000000000077,0.62
151,Yanam,36,IN,1554076202,87,16.73,82.22,77.02700000000007,1.52
152,Okakarara,36,NA,1554076267,56,-20.59,17.46,69.37700000000008,3.97
153,Pisco,20,PE,1554073200,30,-13.71,-76.2,71.6,10.3
154,Kaeo,92,NZ,1554075484,96,-35.1,173.78,69.00800000000001,4.92
155,Panama City,90,US,1554076085,87,30.16,-85.65,51.998000000000026,3.6
156,Tiksi,8,RU,1554076040,76,71.64,128.87,23.02700000000008,3.12
157,Qaanaaq,44,GL,1554076192,85,77.48,-69.36,-3.522999999999975,1.97
158,Sorland,68,NO,1554076269,100,67.67,12.69,38.23700000000006,11.12
159,Traverse City,1,US,1554076224,54,44.76,-85.62,30.991999999999997,3.1
160,Smithers,20,CA,1554073500,34,54.78,-127.17,53.6,2.6
161,Nioro,8,GM,1554076269,46,13.79,-15.05,79.45700000000002,3.22
162,Neuquen,75,AR,1554073200,61,-38.95,-68.06,78.80000000000001,1.5
163,Ndioum,0,SN,1554076270,33,16.51,-14.65,76.75700000000002,4.27
164,Norrtalje,0,SE,1554076084,61,59.76,18.7,35.00600000000003,3.1
165,Prabumulih,92,ID,1554076270,98,-3.5,104.19,72.167,1.27
166,Nikolskoye,75,RU,1554076221,82,59.7,30.79,33.8,4.0
167,Kaitangata,0,NZ,1554076156,43,-46.28,169.85,62.99600000000005,10.28
168,Prieska,12,ZA,1554076271,31,-29.67,22.74,73.78700000000006,4.67
169,Bam,8,IR,1554076272,61,29.11,58.36,52.45700000000002,1.22
170,Kirakira,24,SB,1554076272,100,-10.46,161.92,84.13700000000006,2.52
171,Marsh Harbour,0,BS,1554076272,100,26.54,-77.06,73.967,1.77
172,Esperance,20,TT,1554076207,74,10.24,-61.45,80.99600000000005,3.6
173,Saint-Philippe,90,CA,1554076146,80,45.36,-73.48,33.998000000000026,2.1
174,Berlevag,64,NO,1554076172,100,70.86,29.09,30.497000000000035,11.27
175,Sechura,0,PE,1554076274,63,-5.56,-80.82,77.56700000000001,6.02
176,Alice Springs,0,AU,1554073200,42,-23.7,133.88,62.6,1.5
177,Gambela,0,ET,1554075976,78,8.25,34.59,61.187000000000054,1.22
178,Okhotsk,0,RU,1554076274,67,59.36,143.24,30.766999999999996,2.52
179,Khatanga,92,RU,1554076160,95,71.98,102.47,28.787000000000056,4.12
180,Saint-Augustin,0,FR,1554076235,66,44.83,-0.61,48.2,1.0
181,Yulara,0,AU,1554073200,31,-25.24,130.99,64.4,4.6
182,Conde,88,BR,1554076276,100,-11.81,-37.61,78.28700000000006,2.12
183,Banjar,0,ID,1554076276,93,-7.37,108.54,73.78700000000006,1.32
184,Pomabamba,88,PE,1554076277,59,-8.82,-77.46,54.167,0.72
185,Alcantarilla,80,ES,1554076231,93,37.97,-1.22,57.2,4.1
186,Campestre,0,BR,1554076266,85,-21.71,-46.25,64.517,1.32
187,Eydhafushi,0,MV,1554076278,100,5.1,73.07,83.86699999999999,0.92
188,Lufilufi,0,WS,1554075742,79,-13.87,-171.6,86.0,3.52
189,Amboise,0,FR,1554076152,76,47.41,0.98,53.6,6.2
190,Cairns,75,AU,1554075918,83,-16.92,145.77,84.99199999999999,3.1
191,Sorong,12,ID,1554076280,100,-0.86,131.25,82.517,3.67
192,Abu Samrah,88,SY,1554076280,98,35.3,37.18,49.03700000000006,3.12
193,Port Lincoln,32,AU,1554076052,100,-34.72,135.86,62.08700000000006,0.97
194,Antalaha,12,MG,1554076281,92,-14.9,50.28,77.38700000000006,0.82
195,Isabela,0,PH,1554076281,69,10.2,122.99,78.10700000000003,1.67
196,Garmsar,88,IR,1554076206,81,35.22,52.34,52.727000000000075,1.97
197,Vanavara,92,RU,1554076282,97,60.35,102.28,32.65700000000002,2.77
198,Mount Isa,0,AU,1554073200,37,-20.73,139.49,71.6,3.6
199,Horki,0,BY,1554076282,66,54.29,30.98,37.787000000000056,7.02
200,Maceio,75,BR,1554073200,78,-9.67,-35.74,80.6,2.1
201,Juneau,1,US,1554072960,24,58.3,-134.42,57.2,2.6
202,Chicama,40,PE,1554073200,88,-7.84,-79.15,69.80000000000001,4.6
203,Namatanai,64,PG,1554076283,100,-3.66,152.44,82.06700000000001,6.02
204,Sainte-Marie,75,CA,1554076204,95,46.45,-71.03,33.998000000000026,5.1
205,Touros,75,BR,1554073800,100,-5.2,-35.46,78.80000000000001,1.0
206,Akureyri,20,IS,1554073200,64,65.68,-18.09,37.4,4.6
207,Port Blair,0,IN,1554076017,100,11.67,92.75,83.23700000000005,3.52
208,Sitka,12,US,1554076029,30,37.17,-99.65,46.004000000000055,2.68
209,Naze,8,NG,1554076294,90,5.43,7.07,77.65700000000001,1.67
210,Kuala Kedah,75,MY,1554073200,100,6.11,100.29,80.6,1.07
211,Felanitx,20,ES,1554076267,100,39.47,3.15,57.00200000000008,2.6
212,Rochegda,0,RU,1554076295,86,62.67,43.41,23.297000000000036,1.97
213,Jalu,12,LY,1554076269,51,29.03,21.55,52.81699999999999,3.37
214,Bonavista,8,CA,1554075994,85,48.65,-53.11,42.008,1.34
215,Vikhorevka,90,RU,1554075747,100,56.12,101.17,33.8,2.0
216,Luderitz,8,NA,1554076296,81,-26.65,15.16,60.82700000000008,8.37
217,Airai,0,TL,1554076297,62,-8.93,125.41,76.57700000000008,0.57
218,Paamiut,76,GL,1554076297,100,61.99,-49.67,26.177000000000078,2.32
219,Genhe,44,CN,1554076297,64,50.78,121.52,18.077000000000076,2.57
220,Sola,0,FI,1554076026,73,62.78,29.36,26.6,2.6
221,Nome,75,US,1554076274,54,30.04,-94.42,53.6,5.7
222,Matara,12,PE,1554076299,80,-13.74,-72.9,48.85700000000001,0.87
223,Sturgis,1,US,1554076261,45,44.41,-103.51,53.6,7.2
224,Mitchell,90,US,1554072780,31,43.71,-98.03,60.8,4.6
225,Cidreira,32,BR,1554076300,95,-30.17,-50.22,69.82700000000008,0.62
226,Tasiilaq,80,GL,1554072600,67,65.61,-37.64,23.0,6.7
227,Varhaug,0,NO,1554076220,80,58.61,5.65,33.998000000000026,2.52
228,Guerrero Negro,36,MX,1554076274,23,27.97,-114.04,81.52700000000007,5.47
229,Qeshm,0,IR,1554073200,83,26.96,56.27,75.2,2.1
230,Khuzdar,0,PK,1554076302,49,27.8,66.62,46.60700000000001,1.07
231,Batagay,0,RU,1554076302,64,67.65,134.64,13.037000000000056,1.77
232,Victor Harbor,75,AU,1554076221,48,-35.55,138.62,71.00600000000003,4.6
233,Pacific Grove,1,US,1554076214,36,36.62,-121.92,78.00800000000001,2.6
234,Luanda,75,AO,1554073200,88,-8.83,13.24,80.6,1.87
235,Fort Saint James,32,CA,1554076303,51,54.43,-124.25,46.42700000000008,1.32
236,Ust-Ishim,0,RU,1554076303,78,57.69,71.17,29.597000000000037,5.62
237,Canchungo,0,GW,1554073200,57,12.07,-16.03,78.80000000000001,1.0
238,Abu Zabad,0,SD,1554076304,23,12.35,29.25,67.93700000000007,5.77
239,Datong,8,CN,1554076305,44,40.09,113.3,27.707000000000015,1.07
240,Nhulunbuy,75,AU,1554073200,94,-12.18,136.78,78.80000000000001,4.1
241,Fomboni,64,KM,1554076305,100,-12.28,43.74,83.50700000000002,4.72
242,Tilichiki,88,RU,1554076306,93,60.47,166.1,34.63700000000006,5.17
243,Dali,32,CN,1554076306,96,25.6,100.24,50.117,1.52
244,Maldonado,0,UY,1554073200,88,-34.91,-54.96,66.2,2.6
245,Narsaq,0,GL,1554072600,47,60.91,-46.05,15.8,3.1
246,Bud,92,NO,1554076162,69,62.91,6.91,39.00200000000008,6.2
247,Hasaki,40,JP,1554075577,43,35.73,140.83,50.0,5.1
248,Oussouye,0,SN,1554073200,57,12.49,-16.54,78.80000000000001,1.0
249,Cockburn Town,0,TC,1554076074,100,21.46,-71.14,77.74700000000004,4.67
250,Moose Factory,1,CA,1554073200,38,51.26,-80.61,23.0,3.1
251,Kasongo-Lunda,24,CD,1554076308,95,-6.48,16.82,70.27700000000007,0.72
252,Oarai,40,JP,1554076208,43,36.31,140.57,62.99600000000005,5.1
253,Pyapon,0,MM,1554076310,100,16.29,95.68,73.33700000000006,3.42
254,Kupang,20,ID,1554073200,94,-10.16,123.6,77.0,0.5
255,Cordoba,32,CO,1554076201,78,5.59,-73.79,57.766999999999996,0.62
256,Marzuq,0,YE,1554076311,77,14.4,46.47,46.787000000000056,1.12
257,Victoria,75,BN,1554073200,74,5.28,115.24,82.4,3.6
258,Maniitsoq,76,GL,1554076311,87,65.42,-52.9,21.94700000000004,6.47
259,Husainabad,0,IN,1554076312,89,24.53,84.02,60.467,1.22
260,Ginda,0,IN,1554076312,59,30.69,78.49,43.63700000000006,1.22
261,Chyhyryn,0,UA,1554076312,80,49.08,32.67,37.60700000000001,1.77
262,Bakaly,88,RU,1554076313,93,55.18,53.8,35.807000000000016,5.97
263,Fairbanks,1,US,1554076156,60,64.84,-147.72,55.99400000000007,2.52
264,Lieksa,0,FI,1554076313,90,63.32,30.02,24.016999999999996,2.72
265,Mackay,75,CA,1554073200,65,53.65,-115.58,41.0,2.1
266,Sur,12,OM,1554076072,78,22.57,59.53,79.81700000000001,3.22
267,Mogadishu,0,SO,1554076314,100,2.04,45.34,82.78700000000006,6.47
268,Chumikan,80,RU,1554076314,71,54.72,135.31,23.657000000000018,2.42
269,Muyezerskiy,0,RU,1554076315,85,63.93,31.65,26.98700000000006,2.87
270,Phan Thiet,0,VN,1554076315,92,10.93,108.1,80.80700000000002,4.72
271,Salamiyah,92,SY,1554076315,97,35.01,37.05,46.787000000000056,4.12
272,Longyearbyen,40,NO,1554074400,65,78.22,15.63,6.800000000000001,2.1
273,El Jicaro,0,GT,1554076316,35,14.91,-89.89,81.52700000000007,0.77
274,Bilibino,24,RU,1554076316,74,68.06,166.44,14.566999999999997,1.42
275,Creston,1,US,1554076023,41,41.06,-94.36,46.4,4.1
276,Mutoko,0,ZW,1554076317,90,-17.4,32.23,57.49700000000004,1.22
277,Uyuni,88,BO,1554076280,92,-20.46,-66.82,46.60700000000001,1.07
278,Nieuw Nickerie,20,SR,1554076317,94,5.94,-56.99,80.53700000000006,5.82
279,Kavaratti,0,IN,1554076258,100,10.57,72.64,83.95700000000002,5.12
280,Te Anau,32,NZ,1554076074,68,-45.41,167.72,50.477000000000075,6.47
281,Roald,24,NO,1554076203,69,62.58,6.12,39.00200000000008,6.7
282,Hobyo,92,SO,1554076318,81,5.35,48.53,80.44700000000003,4.22
283,Saint-Joseph,0,FR,1554076084,75,43.56,6.97,51.998000000000026,2.1
284,Tazovskiy,88,RU,1554076319,93,67.47,78.7,29.23700000000006,6.47
285,Kinston,40,US,1554076187,51,35.26,-77.58,60.8,4.1
286,Buala,100,SB,1554076226,100,-8.15,159.59,75.94700000000003,1.07
287,Vega de Alatorre,76,MX,1554076320,94,20.03,-96.65,62.08700000000006,7.02
288,Peniche,20,PT,1554076011,87,39.36,-9.38,59.0,1.0
289,Zigong,92,CN,1554076321,97,29.34,104.78,56.687000000000054,2.22
290,Chateaubelair,20,VC,1554075976,74,13.28,-61.25,80.6,7.7
291,Los Llanos de Aridane,92,ES,1554075984,67,28.66,-17.92,60.8,3.1
292,Namie,20,JP,1554076003,52,37.52,140.86,41.0,4.6
293,Skeldon,20,GY,1554076322,94,5.88,-57.13,80.53700000000006,5.82
294,Vardo,90,US,1554076218,51,39.62,-77.74,42.998000000000026,7.2
295,Jitra,75,MY,1554073200,100,6.27,100.42,75.2,1.07
296,Ixtapa,5,MX,1554076224,74,20.71,-105.21,78.80000000000001,5.7
297,Lavrentiya,32,RU,1554076323,100,65.58,-170.99,28.337000000000057,2.22
298,Lisakovsk,0,KZ,1554076324,85,52.55,62.49,22.577000000000076,3.77
299,Kamaishi,75,JP,1554073200,79,39.28,141.86,32.0,2.6
300,Saint-Ambroise,44,FR,1554076025,71,47.25,-0.65,55.400000000000006,4.6
301,Port Hardy,20,CA,1554073200,76,50.7,-127.42,50.0,3.6
302,Wuwei,0,CN,1554076325,61,37.93,102.64,24.916999999999994,0.92
303,Grindavik,40,IS,1554075415,100,63.84,-22.43,32.0,4.6
304,College,1,US,1554076316,60,64.86,-147.8,55.99400000000007,2.52
305,Honiara,76,SB,1554076067,84,-9.43,159.96,81.79700000000004,1.17
306,Chambersburg,40,US,1554076292,28,39.94,-77.66,42.8,6.7
307,Nevel,44,RU,1554076326,70,56.02,29.92,34.81699999999999,8.22
308,Cap Malheureux,75,MU,1554076142,83,-19.98,57.61,77.0,0.5
309,Hay River,75,CA,1554073200,60,60.82,-115.79,41.0,8.2
310,Sangareddi,20,IN,1554075972,57,17.63,78.09,82.00400000000005,3.1
311,Laredo,40,US,1554076206,58,27.51,-99.51,53.99600000000005,2.6
312,Baruun-Urt,0,MN,1554076328,61,46.68,113.28,18.977000000000075,1.12
313,Souillac,0,FR,1554076225,47,45.6,-0.6,57.2,2.6
314,Macrohon,0,PH,1554076329,74,10.08,124.94,80.62700000000008,4.37
315,Agadez,0,NE,1554076329,18,16.97,7.99,78.10700000000003,5.52
316,Morehead,1,US,1554076108,40,38.18,-83.43,39.2,3.1
317,Pitkyaranta,0,RU,1554076330,89,61.57,31.48,24.377000000000077,3.57
318,Riyadh,0,SA,1554073200,83,24.63,46.72,71.6,2.1
319,Nokha,0,IN,1554076331,51,27.56,73.47,64.33700000000006,1.22
320,Pokosnoye,64,RU,1554076331,97,55.53,101.05,32.92700000000008,1.92
321,Pahrump,1,US,1554076204,15,36.21,-115.98,69.99800000000002,1.5
322,Sinnamary,20,GF,1554076330,93,5.38,-52.96,80.62700000000008,4.22
323,Ponoka,90,CA,1554076322,56,52.68,-113.59,41.0,4.1
324,Kaka,68,TM,1554076332,100,37.35,59.62,37.42700000000008,1.32
325,Chapais,40,CA,1554073200,57,49.78,-74.86,19.4,5.1
326,Buraydah,75,SA,1554073200,68,26.33,43.97,66.2,3.6
327,Hit,92,IQ,1554076231,94,33.64,42.83,52.63700000000006,2.52
328,Mvuma,0,ZW,1554076333,95,-19.28,30.53,59.74700000000004,3.02
329,Santiago de Cao,40,PE,1554073200,88,-7.96,-79.24,69.80000000000001,4.6
330,Turukhansk,48,RU,1554076334,85,65.8,87.96,25.187000000000058,4.22
331,Faanui,0,PF,1554076334,100,-16.48,-151.75,83.86699999999999,2.42
332,Coihaique,0,CL,1554073200,58,-45.58,-72.07,57.2,11.8
333,Kananga,44,CD,1554076339,93,-5.9,22.41,72.34700000000004,1.02
334,Calderitas,40,MX,1554072060,54,18.55,-88.26,84.2,5.1
335,Tingo Maria,48,PE,1554076339,90,-9.29,-76.01,67.75700000000002,0.52
336,Mattoon,90,US,1554076219,59,39.48,-88.38,39.2,3.1
337,Sebinkarahisar,92,TR,1554076340,98,40.29,38.42,33.557000000000016,0.62
338,Mundo Nuevo,90,CL,1554073200,77,-32.72,-71.41,62.6,1.32
339,Maunabo,90,PR,1554076256,69,18.01,-65.9,80.6,2.6
340,Cabo San Lucas,5,MX,1554076209,36,22.89,-109.91,84.00200000000008,1.0
341,Yining,8,CN,1554076341,84,29.04,114.56,47.23700000000006,1.22
342,Campina Verde,0,BR,1554076341,73,-19.54,-49.49,73.60700000000003,1.17
343,Tecpan,20,GT,1554073200,64,14.76,-90.99,73.4,6.2
344,Ubinskoye,80,RU,1554076269,93,55.31,79.68,30.137000000000057,5.82
345,Debre Birhan,92,ET,1554076342,78,9.68,39.53,56.50700000000002,0.87
346,Altamira,88,BR,1554076343,86,-3.2,-52.21,78.917,1.82
347,Arman,32,RU,1554076233,71,59.7,150.17,23.927000000000078,4.62
348,Kudahuvadhoo,0,MV,1554076231,100,2.67,72.89,83.50700000000002,1.77
349,San Andres,0,PH,1554076344,100,13.32,122.68,79.81700000000001,4.97
350,Masunga,0,BW,1554076344,61,-20.62,27.45,63.437000000000054,4.47
351,Coquimbo,0,CL,1554073200,77,-29.95,-71.34,60.8,4.1
352,Petropavlovsk-Kamchatskiy,20,RU,1554073200,68,53.05,158.65,28.4,2.0
353,Sisimiut,68,GL,1554076345,100,66.94,-53.67,13.307000000000016,0.77
354,Yenagoa,0,NG,1554076345,94,4.92,6.26,77.38700000000006,2.32
355,Mchinji,0,MW,1554076346,81,-13.8,32.89,63.34700000000004,1.77
356,Toora-Khem,0,RU,1554076346,71,52.47,96.11,14.477000000000078,0.97
357,Entebbe,56,UG,1554076243,100,0.06,32.45,74.14700000000005,3.77
358,Broome,0,GB,1554076327,77,52.47,1.45,44.00600000000003,3.6
359,Gympie,0,AU,1554076206,74,-26.2,152.66,69.99800000000002,1.79
360,Chulumani,88,BO,1554076347,99,-16.41,-67.53,56.687000000000054,0.77
361,Half Moon Bay,75,US,1554076281,52,37.46,-122.43,77.0,6.7
362,Isla Mujeres,40,MX,1554076342,65,21.23,-86.73,82.4,4.6
363,Vila Velha,68,BR,1554076087,94,-3.71,-38.6,77.0,2.24
364,Tuatapere,44,NZ,1554075606,64,-46.13,167.69,55.004000000000055,2.24
365,Ancud,90,CL,1554073200,100,-41.87,-73.83,55.400000000000006,2.6
366,Pochutla,75,MX,1554076115,45,15.74,-96.47,87.80000000000001,2.02
367,Karasjok,90,NO,1554074400,74,69.47,25.52,28.4,20.1
368,Osa,88,RU,1554076349,97,57.28,55.46,34.727000000000075,5.27
369,Kununurra,0,AU,1554073260,32,-15.77,128.74,80.6,2.6
370,Husavik,68,CA,1554076236,51,50.56,-96.99,37.99400000000007,1.34
371,Ruwi,0,OM,1554072600,64,23.6,58.55,75.2,2.1
372,Hamilton,75,BM,1554075920,88,32.3,-64.78,68.0,3.6
373,Umm Kaddadah,0,SD,1554076351,20,13.6,26.69,67.93700000000007,5.67
374,La Presa,0,MX,1554076351,63,22.34,-105.39,79.99700000000004,3.87
375,Comodoro Rivadavia,0,AR,1554073200,40,-45.87,-67.48,69.80000000000001,2.1
376,Marsa Matruh,92,EG,1554076352,66,31.35,27.25,54.977000000000075,7.27
377,Svetlogorsk,40,RU,1554073200,86,53.14,59.15,32.0,9.0
378,Westport,76,IE,1554076325,88,53.8,-9.52,44.00600000000003,3.72
379,Koge,0,IN,1554076353,89,16.66,74.14,62.08700000000006,1.27
380,Gamba,24,CN,1554076354,38,28.28,88.52,-5.682999999999957,1.17
381,Shache,24,CN,1554076122,46,38.42,77.24,42.998000000000026,1.47
382,Diego de Almagro,0,CL,1554076358,83,-26.39,-70.05,60.82700000000008,1.07
383,Jabinyanah,40,TN,1554073200,62,35.03,10.91,59.0,3.6
384,Nong Phai,8,TH,1554076358,80,16.0,101.06,73.87700000000008,1.47
385,Shubarkuduk,0,KZ,1554076359,76,49.15,56.49,27.437000000000058,2.32
386,Colac,0,AU,1554076350,92,-38.34,143.59,60.00800000000001,1.17
387,Thunder Bay,75,CA,1554075920,34,48.41,-89.26,35.6,5.1
388,Panaba,44,MX,1554076359,41,21.28,-88.27,87.10700000000003,2.87
389,Brindisi,0,IT,1554076205,76,40.63,17.94,53.99600000000005,2.6
390,Zyryanka,0,RU,1554076360,74,65.73,150.89,17.177000000000078,1.42
391,Northam,0,GB,1554076327,75,51.04,-4.21,46.99400000000007,4.1
392,Fort Morgan,0,US,1554075988,25,40.25,-103.8,53.6,1.5
393,Mecca,0,SA,1554076362,46,21.43,39.83,58.03700000000006,2.32
394,Celestun,0,MX,1554076362,93,20.87,-90.4,78.55700000000002,9.62
395,Lorengau,48,PG,1554076249,96,-2.02,147.27,83.59700000000004,4.57
396,Caldwell,1,US,1554076277,26,43.67,-116.69,62.00600000000003,2.1
397,Manzanillo,44,CU,1554076363,96,20.34,-77.12,81.167,2.87
398,Teknaf,44,BD,1554076363,96,20.86,92.31,72.88700000000006,1.42
399,Buin,88,CL,1554076104,72,-33.73,-70.74,69.99800000000002,2.1
400,Duzce,64,TR,1554076364,94,40.84,31.16,34.09700000000004,0.77
401,Severo-Kurilsk,68,RU,1554076364,99,50.68,156.12,29.687000000000058,1.32
402,San Jose,24,PH,1554076101,86,15.79,120.99,74.68700000000007,1.27
403,Haines Junction,0,CA,1554076331,46,60.75,-137.51,41.56699999999999,1.17
404,Harper,1,US,1554076226,22,30.3,-99.24,57.992,3.1
405,Cranbrook,90,CA,1554073200,61,49.51,-115.76,46.4,3.1
406,Yar-Sale,0,RU,1554076273,72,66.83,70.83,17.266999999999996,6.02
407,Pangai,40,TO,1554073200,78,-19.8,-174.35,82.4,3.1
408,Beyneu,0,KZ,1554076367,77,45.32,55.19,30.497000000000035,1.52
409,Liwale,44,TZ,1554076368,90,-9.8,37.92,70.63700000000006,0.77
410,Sibu,75,MY,1554073200,94,2.29,111.83,75.2,1.5
411,Arica,0,CL,1554073200,64,-18.48,-70.32,69.80000000000001,2.1
412,Hami,76,CN,1554076369,55,42.84,93.51,43.367,2.42
413,Effingham,75,US,1554076284,51,39.12,-88.54,41.0,3.6
414,Kaduna,0,NG,1554076370,56,10.52,7.44,70.18700000000007,1.62
415,Codrington,24,AU,1554076178,59,-28.95,153.24,71.00600000000003,2.6
416,Chuy,24,UY,1554076264,93,-33.69,-53.46,66.58700000000006,3.07
417,Araouane,76,ML,1554076372,34,18.9,-3.53,82.24700000000004,3.62
418,Naumburg,0,DE,1554076324,69,51.15,11.81,42.008,4.6
419,Labytnangi,20,RU,1554076372,73,66.66,66.39,18.347000000000037,5.22
420,Iisalmi,90,FI,1554074400,92,63.56,27.19,28.4,4.1
421,Conchal,64,BR,1554076373,62,-22.34,-47.17,72.79700000000004,2.87
422,Talnakh,92,RU,1554076211,90,69.49,88.39,28.69700000000004,6.62
423,Khani,75,GE,1554073200,75,41.96,42.96,51.8,14.4
424,Kavieng,80,PG,1554076375,100,-2.57,150.8,83.77700000000007,3.27
425,Damghan,92,IR,1554076376,76,36.17,54.34,46.787000000000056,0.32
426,Yumen,36,CN,1554076376,63,40.29,97.04,30.677000000000078,0.87
427,Konevo,0,BG,1554076214,62,41.67,25.61,44.99600000000005,1.42
428,Lompoc,1,US,1554076044,63,34.64,-120.46,78.00800000000001,6.2
429,Quatre Cocos,75,MU,1554076142,83,-20.21,57.76,77.0,0.5
430,Ossora,88,RU,1554076378,100,59.24,163.07,32.207000000000015,2.17
431,Nguruka,44,TZ,1554076378,98,-5.11,31.04,65.95700000000002,1.22
432,Maumere,8,ID,1554076253,100,-8.63,122.22,81.88700000000006,1.42
433,Charlestown,90,US,1554076346,87,41.38,-71.64,44.99600000000005,7.2
434,Cariati,0,IT,1554075796,89,39.5,16.95,51.00800000000001,4.57
435,Arkhangelsk,75,RU,1554073200,92,64.54,40.54,26.6,2.0
436,Vila Franca do Campo,40,PT,1554075000,71,37.72,-25.43,57.2,7.7
437,Havelock,90,US,1554076203,63,34.88,-76.9,62.6,6.2
438,Qiongshan,75,CN,1554073200,94,20.01,110.35,77.0,3.0
439,Omboue,92,GA,1554076381,99,-1.57,9.26,84.22700000000009,3.72
440,Imbituba,40,BR,1554073200,83,-28.24,-48.67,75.2,2.6
441,Asbestos,90,CA,1554076024,100,45.78,-71.93,33.008,4.1
442,Udachnyy,44,RU,1554076263,80,66.42,112.4,27.166999999999994,2.72
443,Petauke,0,ZM,1554076382,56,-14.25,31.33,70.27700000000007,5.07
444,Nautla,100,MX,1554076382,100,20.22,-96.78,66.85700000000003,13.37
445,Tura,32,IN,1554076239,96,25.52,90.21,63.167,1.72
446,Alberton,92,ZA,1554076339,68,-26.25,28.13,69.00800000000001,4.6
447,Messina,5,IT,1554076023,62,38.19,15.55,55.99400000000007,1.0
448,San Juan,56,AR,1554076098,59,-31.54,-68.53,72.43700000000007,1.87
449,Zeya,0,RU,1554076126,55,53.74,127.27,19.427000000000078,1.37
450,Meulaboh,76,ID,1554076184,100,4.14,96.13,79.90700000000001,2.12
451,Antsohihy,48,MG,1554076384,100,-14.88,47.99,72.52700000000007,1.97
452,Dingle,0,PH,1554076384,65,11.0,122.67,77.83700000000006,5.82
453,Orlik,44,RU,1554076385,73,52.51,99.83,10.697000000000035,0.87
454,Farad,0,YE,1554076385,85,14.05,44.12,46.787000000000056,1.07
455,Pio IX,20,BR,1554076386,86,-6.83,-40.61,73.967,2.87
456,Aksu,0,KZ,1554073200,100,52.04,76.93,28.4,2.0
457,Kandrian,24,PG,1554076386,84,-6.21,149.55,83.77700000000007,1.37
458,Concordia,80,AR,1554075413,82,-31.4,-58.02,78.00800000000001,1.34
459,Bolshaya Martynovka,0,RU,1554076387,71,47.27,41.67,34.90700000000002,3.47
460,Mookane,8,BW,1554076387,52,-23.68,26.66,69.73700000000005,4.72
461,Orapa,0,BW,1554076387,37,-21.28,25.37,76.30700000000002,5.12
462,Yangzhou,0,CN,1554076384,52,32.39,119.44,59.0,0.45
463,Mahon,40,IE,1554075000,93,51.89,-8.4,42.8,1.5
464,Katsuura,20,JP,1554075260,57,33.93,134.5,48.992,11.3
465,Diamantina,44,BR,1554076388,67,-18.24,-43.6,68.38700000000006,1.32
466,Khasan,24,RU,1554076389,85,42.43,130.64,35.35700000000001,1.57
467,Klaksvik,68,FO,1554074400,81,62.23,-6.59,42.8,4.1
468,Kutum,0,SD,1554076389,23,14.2,24.66,61.09700000000004,4.32
469,Houma,0,CN,1554076390,48,35.63,111.36,38.957000000000015,0.97
470,Churapcha,0,RU,1554076390,63,62.0,132.43,18.977000000000075,2.37
471,Atchison,1,US,1554076024,36,39.56,-95.12,48.00200000000008,1.5
472,Togur,56,RU,1554076390,87,58.36,82.83,31.127000000000077,5.92
473,Hays,1,US,1554075935,25,38.88,-99.33,51.8,2.6
474,Pangody,24,RU,1554076391,82,65.85,74.49,22.127000000000077,4.92
475,Champerico,40,MX,1554072540,54,16.38,-93.6,82.4,10.3
476,Eureka,1,US,1554076326,76,40.8,-124.16,59.0,3.6
477,Khandbari,36,NP,1554076378,87,27.38,87.21,35.44700000000004,0.62
478,Jamame,0,SO,1554076392,90,0.07,42.75,77.83700000000006,3.02
479,Bucerias,5,MX,1554076224,74,20.76,-105.33,78.80000000000001,5.7
480,Kralendijk,0,BQ,1554076372,96,12.15,-68.27,80.08700000000006,8.62
481,Shwebo,0,MM,1554076393,94,22.57,95.7,67.03700000000006,1.92
482,Penzance,0,GB,1554076242,93,50.12,-5.53,53.00600000000003,10.3
483,Bagula,0,IN,1554076394,90,23.33,88.64,68.74700000000004,1.87
484,Pueblo Nuevo,0,MX,1554075917,62,23.99,-106.96,78.00800000000001,3.58
485,Santa Marta,75,CO,1554075854,59,11.24,-74.21,89.6,6.2
486,Zhezkazgan,92,KZ,1554076395,94,47.8,67.71,40.307000000000016,7.92
487,Banda Aceh,0,ID,1554076237,99,5.56,95.32,73.60700000000003,1.17
488,Dosso,8,NE,1554076396,47,13.05,3.19,80.35700000000003,1.92
489,Vettavalam,0,IN,1554076396,73,12.11,79.24,67.75700000000002,2.12
490,Melfi,5,IT,1554072900,87,41.0,15.66,42.8,4.1
491,Kondopoga,0,RU,1554073200,80,62.21,34.27,30.2,3.0
492,Constanza,40,DO,1554073200,69,18.91,-70.74,78.80000000000001,4.1
493,Starokozache,0,UA,1554073200,86,46.34,29.99,41.0,1.17
494,Whitehorse,20,CA,1554076330,36,60.72,-135.06,48.00200000000008,2.6
495,Sao Joao da Barra,0,BR,1554073200,73,-21.64,-41.05,77.0,1.0
496,Khor,0,RU,1554076322,81,47.88,134.96,25.816999999999997,2.42
497,Barranca,48,PE,1554076246,95,-10.75,-77.76,67.667,6.12
498,Ambunti,44,PG,1554076401,88,-4.22,142.82,81.88700000000006,0.92
499,Amapa,20,HN,1554073200,62,15.09,-87.97,84.2,8.7
500,Bontang,32,ID,1554076401,99,0.12,117.47,79.90700000000001,1.97
501,Beringovskiy,88,RU,1554076402,96,63.05,179.32,32.56699999999999,6.72
502,Mayo,90,CA,1554073200,37,63.59,-135.9,50.0,4.1
503,Esmeraldas,20,BR,1554073200,64,-19.76,-44.31,73.4,3.1
504,Non Thai,20,TH,1554076214,88,15.2,102.07,87.00800000000001,1.92
505,Komsomolskiy,0,RU,1554076403,85,67.55,63.78,20.687000000000054,6.62
506,Abu Dhabi,0,AE,1554073200,14,24.47,54.37,89.6,6.7
507,Ekibastuz,0,KZ,1554076404,74,51.72,75.32,22.397000000000034,2.07
508,Alofi,56,NU,1554073200,88,-19.06,-169.92,78.80000000000001,3.6
509,Moreno,0,AR,1554076205,64,-34.64,-58.79,75.99199999999999,2.6
510,Vestmannaeyjar,76,IS,1554076405,100,63.44,-20.27,34.81699999999999,4.92
511,Tottori,75,JP,1554075000,100,35.5,134.23,39.2,2.1
512,Ust-Kishert,92,RU,1554076405,95,57.36,57.24,35.17700000000008,7.47
513,Cabreuva,75,BR,1554075746,73,-23.31,-47.13,71.99600000000005,3.1
514,Belmonte,48,PT,1554076137,71,40.36,-7.35,51.00800000000001,2.68
515,Mudon,0,MM,1554076406,90,16.26,97.73,68.47700000000009,1.02
516,Port Hedland,0,AU,1554073200,61,-20.31,118.58,77.0,3.6
517,Mahanoro,88,MG,1554076407,99,-19.9,48.8,72.70700000000002,0.92
518,Birobidzhan,32,RU,1554076407,46,48.79,132.93,30.137000000000057,1.67
519,Bassila,20,BJ,1554076407,62,9.0,1.66,82.15700000000001,2.97
520,Manitouwadge,44,CA,1554076408,57,49.12,-85.84,26.807000000000016,2.67
521,Hovd,75,NO,1554076145,69,63.83,10.7,35.99600000000005,7.2
522,Kloulklubed,90,PW,1554076200,78,7.04,134.26,82.4,4.6
523,Timmins,20,CA,1554073200,29,48.48,-81.33,24.8,3.6
524,Bardsir,0,IR,1554073200,66,29.93,56.57,50.0,2.1
525,Ushumun,0,RU,1554076409,50,52.78,126.54,22.127000000000077,1.62
526,Henties Bay,100,NA,1554073333,85,-22.12,14.28,62.99600000000005,1.79
527,Gazanjyk,44,TM,1554076410,75,39.24,55.52,43.00700000000002,8.62
528,Taganak,75,PH,1554073200,94,6.08,118.3,75.2,1.0
529,Grand Gaube,75,MU,1554076142,83,-20.01,57.66,77.0,0.5
530,Hirara,75,JP,1554073200,77,24.8,125.28,64.4,7.7
531,Salalah,20,OM,1554072600,78,17.01,54.1,77.0,0.5
532,Zhenlai,8,CN,1554076412,44,45.84,123.2,30.857000000000017,4.17
533,Florianopolis,40,BR,1554076369,83,-27.6,-48.55,77.0,2.6
534,Wamba,32,CD,1554076412,97,2.14,27.99,66.94700000000003,0.97
535,Dongli,90,CN,1554073200,82,24.18,117.61,57.2,5.0
536,Morondava,0,MG,1554076271,100,-20.3,44.28,73.33700000000006,1.87
537,Innisfail,90,CA,1554075916,56,52.02,-113.95,44.99600000000005,4.1
538,Buriti Alegre,0,BR,1554076414,66,-18.14,-49.04,73.60700000000003,1.82
539,Chupa,40,PE,1554073200,58,-15.11,-69.99,55.400000000000006,4.6
540,Cayenne,76,GF,1554075000,78,4.94,-52.33,78.80000000000001,1.5
541,Dandong,0,CN,1554076415,49,40.12,124.37,37.42700000000008,1.37
542,Tommot,48,RU,1554076415,81,58.97,126.27,19.066999999999993,1.42
